photos:
- album: Snaps
  aspect: 1.4985855728429986
  cam_model: Canon EOS 1000D
  date_time_original: 03 August 2017
  exposure: 1/40
  f_number: '4.0'
  focal_length: '35.0'
  img: Snaps/Skate afternoon.jpg
  iso: 1600
  latitude: 41.4522046
  lens_model: ''
  longitude: 2.2235128
  title: Skate afternoon
  user_comment: !!python/unicode "ASCII\0\0\0Late afternoon shot at Los Planos, Badalona.\
    \ I like how the black skyline highlights the two subjects."
- album: Snaps
  aspect: 1.5
  cam_model: Canon EOS 1000D
  date_time_original: 05 August 2017
  exposure: 1/200
  f_number: '7.1'
  focal_length: '18.0'
  img: Snaps/Suncomb.jpg
  iso: 400
  latitude: 41.4602724
  lens_model: ''
  longitude: 2.2265877
  title: Suncomb
  user_comment: !!python/unicode "ASCII\0\0\0First light. Hike through Montigala with\
    \ Mila."
- album: Snaps
  aspect: 1.5
  cam_model: Canon EOS 1000D
  date_time_original: 05 August 2017
  exposure: 1/100
  f_number: '10.0'
  focal_length: '25.0'
  img: Snaps/Abandoned hut.jpg
  iso: 1600
  latitude: 41.4704521
  lens_model: ''
  longitude: 2.2201021
  title: Abandoned hut
  user_comment: !!python/unicode "ASCII\0\0\0Inside an abandoned hut, the area below\
    \ was cluttered with debris and graffiti. It was nice to see a cleaner wall hit\
    \ by the sun."
- album: Snaps
  aspect: 1.3333333333333333
  cam_model: E-M5MarkII
  date_time_original: 18 June 2018
  exposure: 1/80
  f_number: '1.4'
  focal_length: '25.0'
  img: Snaps/Danubius fountain.jpg
  iso: 200
  latitude: 47.4981212
  lens_model: LEICA DG SUMMILUX 25/F1.4
  longitude: 19.0523199
  title: Danubius fountain
  user_comment: !!python/unicode "ASCII\0\0\0Budapest eye behind one of the statues\
    \ in the Danubius fountain. Thoughtful."
- album: Snaps
  aspect: 0.75
  cam_model: E-M5MarkII
  date_time_original: 18 June 2018
  exposure: 1/80
  f_number: '1.4'
  focal_length: '25.0'
  img: Snaps/Budapest eye on water.jpg
  iso: 200
  latitude: 47.4986424
  lens_model: LEICA DG SUMMILUX 25/F1.4
  longitude: 19.0534036
  title: Budapest eye on water
  user_comment: !!python/unicode "ASCII\0\0\0A steamy reflection of the Budapest eye."
- album: Snaps
  aspect: 1.3333333333333333
  cam_model: E-M5MarkII
  date_time_original: 18 June 2018
  exposure: 1/13
  f_number: '1.4'
  focal_length: '25.0'
  img: Snaps/Light leaking.jpg
  iso: 200
  latitude: 47.5004729
  lens_model: LEICA DG SUMMILUX 25/F1.4
  longitude: 19.0503311
  title: Light leaking
  user_comment: !!python/unicode "ASCII\0\0\0Light leaking through the dark at a closed\
    \ store. I really liked how it shun the stands."
- album: Snaps
  aspect: 1.3333333333333333
  cam_model: E-M5MarkII
  date_time_original: 18 June 2018
  exposure: 1/13
  f_number: '1.4'
  focal_length: '25.0'
  img: Snaps/Japanese restaurant at Budapest.jpg
  iso: 200
  latitude: 47.5007287
  lens_model: LEICA DG SUMMILUX 25/F1.4
  longitude: 19.047181600000002
  title: Japanese restaurant at Budapest
  user_comment: !!python/unicode "ASCII\0\0\0The restaurant was completely empty.\
    \ The lights were very dim and the japanese neon lettering stood out."
- album: Snaps
  aspect: 1.3333333333333333
  cam_model: E-M5MarkII
  date_time_original: 20 June 2018
  exposure: 1/200
  f_number: '5.2'
  focal_length: '111.0'
  img: Snaps/Bike rental.jpg
  iso: 200
  latitude: 47.5279771
  lens_model: OLYMPUS M.40-150mm F4.0-5.6 R
  longitude: 19.047604600000003
  title: Bike rental
  user_comment: !!python/unicode "ASCII\0\0\0Caught two ladies biking through the\
    \ park under the sun. The red canopy seems to be giving the tree on the right\
    \ a redish tint."
- album: Snaps
  aspect: 1.3333333333333333
  cam_model: E-M5MarkII
  date_time_original: 20 June 2018
  exposure: 1/400
  f_number: '4.6'
  focal_length: '66.0'
  img: Snaps/Vibrant reed.jpg
  iso: 200
  latitude: 47.5339289
  lens_model: OLYMPUS M.40-150mm F4.0-5.6 R
  longitude: 19.0510905
  title: Vibrant reed
  user_comment: !!python/unicode "ASCII\0\0\0Riverside hot dog during an afternoon\
    \ walk by Margaret Island, Budapest."
- album: Snaps
  aspect: 1.6619508562918839
  cam_model: E-M5MarkII
  date_time_original: 20 June 2018
  exposure: 1/5000
  f_number: '1.8'
  focal_length: '17.0'
  img: Snaps/Budapest.jpg
  iso: 200
  latitude: 47.4960024
  lens_model: OLYMPUS M.17mm F1.8
  longitude: 19.048583500000003
  title: Budapest
  user_comment: !!python/unicode "ASCII\0\0\0I have to say Budapest is one of the\
    \ prettiest, out of a postcard european big cities I've ever been to."
- album: Snaps
  aspect: 1.3333333333333333
  cam_model: E-M5MarkII
  date_time_original: 20 June 2018
  exposure: 1/2000
  f_number: '1.8'
  focal_length: '17.0'
  img: Snaps/Sunset clouds from a hill.jpg
  iso: 200
  latitude: 47.4911951
  lens_model: OLYMPUS M.17mm F1.8
  longitude: 19.0451896
  title: Sunset clouds from a hill
  user_comment: !!python/unicode "ASCII\0\0\0Sunsets and clouds never disappoint.\
    \ Took this coming down from a hill in Budapest. The Buda castle rises above the\
    \ skyline."
- album: Snaps
  aspect: 1.3333333333333333
  cam_model: E-M5MarkII
  date_time_original: 21 June 2018
  exposure: 1/8000
  f_number: '1.8'
  focal_length: '17.0'
  img: Snaps/Ghimbav railroad officer.jpg
  iso: 200
  latitude: 45.676876
  lens_model: OLYMPUS M.17mm F1.8
  longitude: 25.5135491
  title: Ghimbav railroad officer
  user_comment: !!python/unicode "ASCII\0\0\0Managed to capture this railroad worker\
    \ while the train was passing full speed by the Ghimbav station."
- album: Snaps
  aspect: 1.3333333333333333
  cam_model: E-M5MarkII
  date_time_original: 22 June 2018
  exposure: 1/8000
  f_number: '1.4'
  focal_length: '25.0'
  img: Snaps/View from Bran Castle.jpg
  iso: 100
  latitude: 45.5152106
  lens_model: LEICA DG SUMMILUX 25/F1.4
  longitude: 25.368264800000002
  title: View from Bran Castle
  user_comment: !!python/unicode "ASCII\0\0\0Arguably more stunning than the castle\
    \ itself. Love how the buildings in the foreground couldn't agree on the color\
    \ for the roof."
- album: Snaps
  aspect: 1.3333333333333333
  cam_model: E-M5MarkII
  date_time_original: 24 June 2018
  exposure: 1/250
  f_number: '1.4'
  focal_length: '25.0'
  img: Snaps/Stare_.jpg
  iso: 200
  latitude: 42.6896609
  lens_model: LEICA DG SUMMILUX 25/F1.4
  longitude: 23.3057659
  title: Stare_
  user_comment: !!python/unicode "ASCII\0\0\0Wonder what this guys' story is. Sitting\
    \ under the morning sun by the Boyana Church, Sofia."
- album: Snaps
  aspect: 1.3333333333333333
  cam_model: E-M5MarkII
  date_time_original: 24 June 2018
  exposure: 1/3200
  f_number: '1.4'
  focal_length: '25.0'
  img: Snaps/Globe playground.jpg
  iso: 200
  latitude: 42.7107971
  lens_model: LEICA DG SUMMILUX 25/F1.4
  longitude: 23.3185675
  title: Globe playground
  user_comment: !!python/unicode "ASCII\0\0\0Nature's slowly taking back this abadoned\
    \ playground."
- album: Snaps
  aspect: 1.3333333333333333
  cam_model: E-M5MarkII
  date_time_original: 24 June 2018
  exposure: 1/5000
  f_number: '1.4'
  focal_length: '25.0'
  img: Snaps/Beverage on a table.jpg
  iso: 200
  latitude: 42.712232500000006
  lens_model: LEICA DG SUMMILUX 25/F1.4
  longitude: 23.3205574
  title: Beverage on a table
  user_comment: !!python/unicode "ASCII\0\0\0Whatever this bottle held was peed a\
    \ long time ago."
- album: Snaps
  aspect: 1.3333333333333333
  cam_model: E-M5MarkII
  date_time_original: 24 June 2018
  exposure: 1/640
  f_number: '1.4'
  focal_length: '25.0'
  img: Snaps/Last light on a building.jpg
  iso: 200
  latitude: 42.7064637
  lens_model: LEICA DG SUMMILUX 25/F1.4
  longitude: 23.3292203
  title: Last light on a building
  user_comment: !!python/unicode "ASCII\0\0\0The orange rays give a nice contrast\
    \ against a rainy sky."
- album: Snaps
  aspect: 0.8566666666666667
  cam_model: E-M5MarkII
  date_time_original: 25 June 2018
  exposure: 1/8000
  f_number: '1.4'
  focal_length: '25.0'
  img: Snaps/Old yellow bricks.jpg
  iso: 100
  latitude: 42.699788
  lens_model: LEICA DG SUMMILUX 25/F1.4
  longitude: 23.3315917
  title: Old yellow bricks
  user_comment: !!python/unicode "ASCII\0\0\0Yellow cobblestone road in Sofia."
- album: Snaps
  aspect: 1.7788906009244991
  cam_model: E5823
  date_time_original: 15 October 2018
  exposure: 1/400
  f_number: '2.0'
  focal_length: '4.23'
  img: Snaps/Morning after a storm.jpg
  iso: 40
  latitude: 41.442642899999996
  lens_model: ''
  longitude: 2.2477377
  title: Morning after a storm
  user_comment: !!python/unicode "ASCII\0\0\0The previous night a storm fell hard\
    \ by the beach. The winds destroyed the dock and left a floating mist above the\
    \ sea that gave a bright golden light to the whole horizon. I managed to take\
    \ this with my phone, I wish I'd had my camera with me. The view was absolutely\
    \ stunning."
